[
  {
    "name" : "Blessed Ogbo-God Concept",
    "phone" : "080-DIGI-BAY-342",
    "image" : "1.jpg",
    "location" : "okaka"
  },
  {
    "name" : "Ebi-Vick Collection",
    "phone" : "080-DIGI-BAY-342",
    "image" : "2.jpg",
    "location" : "ovom"
  },
  {
    "name" : "spam",
    "phone" : "080-DIGI-BAY-342",
    "image" : "3.jpg",
    "location" : "ovom"
  },
  {
    "name" : "Bookshop  beans",
    "phone" : "080-DIGI-BAY-342",
    "image" : "4.jpg",
    "location" : "Kpansia"
  },
  {
    "name" : "Bookshop  beans",
    "phone" : "080-DIGI-BAY-342",
    "image" : "5.jpg",
    "location" : "Kpansia"
  },
  {
    "name" : "Bookshop  peas",
    "phone" : "080-DIGI-BAY-342",
    "image" : "6.jpg",
    "location" : "Kpansia"
  },
  {
    "name" : "Bookshop  peas",
    "phone" : "080-DIGI-BAY-342",
    "image" : "7.jpg",
    "location" : "Ekeki"
  },
  {
    "name" : "Bookshop  beef",
    "phone" : "080-DIGI-BAY-342",
    "image" : "8.jpg",
    "location" : "ovom"
  },
  {
    "name" : "Bookshop  soup",
    "phone" : "080-DIGI-BAY-342",
    "image" : "9.jpg",
    "location" :"Biogbolo"
  },
  {
    "name" : "Bookshop tomatoes",
    "phone" : "080-DIGI-BAY-342",
    "image" : "10.jpg",
    "location" : "Ekeki"
  },
  {
    "name" : "Bookshop noodle soup",
    "phone" : "080-DIGI-BAY-342",
    "image" : "11.jpg",
    "location" :"Yenizuegene"
  },
  {
    "name" : "Bookshop and coriander soup",
    "phone" : "080-DIGI-BAY-342",
    "image" : "12.jpg",
    "location" :"Yenizuegene"
  },
  {
    "name" : "Bookshop tomatoes",
    "phone" : "080-DIGI-BAY-342",
    "image" : "13.jpg",
    "location" : "Ekeki"
  },
  {
    "name" : "Bookshop noodle soup",
    "phone" : "080-DIGI-BAY-342",
    "image" : "14.jpg",
    "location" :"Yenizuegene"
  },
  {
    "name" : "Bookshop and coriander soup",
    "phone" : "080-DIGI-BAY-342",
    "image" : "15.jpg",
    "location" :"Swali"
  }
,
    {
      "name" : "Blessed Ogbo-God Concept",
      "phone" : "080-DIGI-BAY-342",
      "image" : "1.jpg",
      "location" : "Ekeki"
    },
    {
      "name" : "Printing Press Collection",
      "phone" : "080-DIGI-BAY-342",
      "image" : "2.jpg",
      "location" : "Etegwe"
    },
    {
      "name" : "Printing Press",
      "phone" : "080-DIGI-BAY-342",
      "image" : "3.jpg",
      "location" : "Etegwe"
    },
    {
      "name" : "Printing Press  beans",
      "phone" : "080-DIGI-BAY-342",
      "image" : "4.jpg",
      "location" : "opolo"
    },
    {
      "name" : "Printing Press  beans",
      "phone" : "080-DIGI-BAY-342",
      "image" : "5.jpg",
      "location" : "opolo"
    },
    {
      "name" : "Printing Press  peas",
      "phone" : "080-DIGI-BAY-342",
      "image" : "6.jpg",
      "location" : "opolo"
    },
    {
      "name" : "Printing Press  peas",
      "phone" : "080-DIGI-BAY-342",
      "image" : "7.jpg",
      "location" : "opolo"
    },
    {
      "name" : "Printing Press  beef",
      "phone" : "080-DIGI-BAY-342",
      "image" : "8.jpg",
      "location" : "Etegwe"
    },
    {
      "name" : "Printing Press  soup",
      "phone" : "080-DIGI-BAY-342",
      "image" : "9.jpg",
      "location" :"Swali"
    },
    {
      "name" : "Printing Press tomatoes",
      "phone" : "080-DIGI-BAY-342",
      "image" : "10.jpg",
      "location" : "Amarata"
    },
    {
      "name" : "Printing Press noodle soup",
      "phone" : "080-DIGI-BAY-342",
      "image" : "11.jpg",
      "location" :"Swali"
    },
    {
      "name" : "Printing Press and coriander soup",
      "phone" : "080-DIGI-BAY-342",
      "image" : "12.jpg",
      "location" :"Azikoro"
    },
    {
      "name" : "Printing Press tomatoes",
      "phone" : "080-DIGI-BAY-342",
      "image" : "13.jpg",
      "location" : "Amarata"
    },
    {
      "name" : "Printing Press noodle soup",
      "phone" : "080-DIGI-BAY-342",
      "image" : "14.jpg",
      "location" :"Azikoro"
    },
    {
      "name" : "Printing Press and coriander soup",
      "phone" : "080-DIGI-BAY-342",
      "image" : "15.jpg",
      "location" :"Azikoro"
    }
    ,
    {
      "name" : "Blessed Ogbo-God Concept",
      "phone" : "080-DIGI-BAY-342",
      "image" : "1.jpg",
      "location" : "Amarata"
    },
    {
      "name" : "Laboratory Collection",
      "phone" : "080-DIGI-BAY-342",
      "image" : "2.jpg",
      "location" : "Akenfa"
    },
    {
      "name" : "Laboratory",
      "phone" : "080-DIGI-BAY-342",
      "image" : "3.jpg",
      "location" : "Akenfa"
    },
    {
      "name" : "Laboratory  beans",
      "phone" : "080-DIGI-BAY-342",
      "image" : "4.jpg",
      "location" : "Amarata"
    },
    {
      "name" : "Laboratory  beans",
      "phone" : "080-DIGI-BAY-342",
      "image" : "5.jpg",
      "location" : "okaka"
    },
    {
      "name" : "Laboratory  peas",
      "phone" : "080-DIGI-BAY-342",
      "image" : "6.jpg",
      "location" : "okaka"
    },
    {
      "name" : "Laboratory  peas",
      "phone" : "080-DIGI-BAY-342",
      "image" : "7.jpg",
      "location" : "okaka"
    },
    {
      "name" : "Laboratory  beef",
      "phone" : "080-DIGI-BAY-342",
      "image" : "8.jpg",
      "location" : "Akenfa"
    },
    {
      "name" : "Laboratory  soup",
      "phone" : "080-DIGI-BAY-342",
      "image" : "9.jpg",
      "location" :"Ediepie"
    },
    {
      "name" : "Laboratory tomatoes",
      "phone" : "080-DIGI-BAY-342",
      "image" : "10.jpg",
      "location" : "okaka"
    },
    {
      "name" : "Laboratory noodle soup",
      "phone" : "080-DIGI-BAY-342",
      "image" : "11.jpg",
      "location" :"Ediepie"
    },
    {
      "name" : "Laboratory and coriander soup",
      "phone" : "080-DIGI-BAY-342",
      "image" : "12.jpg",
      "location" :"Ediepie"
    },
    {
      "name" : "Laboratory tomatoes",
      "phone" : "080-DIGI-BAY-342",
      "image" : "13.jpg",
      "location" : "okaka"
    },
    {
      "name" : "Laboratory noodle soup",
      "phone" : "080-DIGI-BAY-342",
      "image" : "14.jpg",
      "location" :"Biogbolo"
    },
    {
      "name" : "Laboratory and coriander soup",
      "phone" : "080-DIGI-BAY-342",
      "image" : "15.jpg",
      "location" :"Biogbolo"
    }
    

]