[{
  "name":"DIGIBAYELSA",
  "phone":"080-DIGINot Verified",
  "image":"3.jpg",
  "location":"Opolo",
  "status":"Not Verified",
  "link":"https://digibayelsa.github.io/getverified/verify.html"
  },
  {
  "name":"DIGIBAYELSA",
  "phone":"080-DIGINot Verified",
  "image":"2.jpg",
  "location":"Ekeki",
  "status":"Not Verified",
  "link":"https://digibayelsa.github.io/getverified/verify.html"
  },{
    "name":"Cutz n Shave",
    "phone":"07062219Not Verified",
    "image":"1.jpg",
    "location":"Opolo",
    "status":"Not Verified",
    "link":"https://digibayelsa.github.io/getverified/verify.html"
    },
    {
    "name":"Bravion Top Notch",
    "phone":"08034889Not Verified",
    "image":"2.jpg",
    "location":"Etegwe",
    "status":"Not Verified",
    "link":"https://digibayelsa.github.io/getverified/verify.html"
    },
    {
    "name":"Success barbing Shop",
    "phone":"07069651Not Verified",
    "image":"3.jpg",
    "location":"Amarata",
    "status":"Not Verified",
    "link":"https://digibayelsa.github.io/getverified/verify.html"
    },
    {
    "name":"Dozie cleancut",
    "phone":"08037070Not Verified",
    "image":"1.jpg",
    "location":"Okutukutu",
    "status":"Not Verified",
    "link":"https://digibayelsa.github.io/getverified/verify.html"
    },
    {
    "name":"Diamond Kut",
    "phone":"080-DIGINot Verified",
    "image":"2.jpg",
    "location":"Ekeki",
    "status":"Not Verified",
    "link":"https://digibayelsa.github.io/getverified/verify.html"
    },
    {
    "name":"TM classic Salon",
    "phone":"080-DIGINot Verified",
    "image":"1.jpg",
    "location":"Ekeki",
    "status":"Not Verified",
    "link":"https://digibayelsa.github.io/getverified/verify.html"
    },
    {
    "name":"Hair Masters",
    "phone":"080-DIGINot Verified",
    "image":"3.jpg",
    "location":"Ekeki",
    "status":"Not Verified",
    "link":"https://digibayelsa.github.io/getverified/verify.html"
    },
    {
    "name":"Ebitari",
    "phone":"080-DIGINot Verified",
    "image":"3.jpg",
    "location":"Yenizuegene",
    "status":"Not Verified",
    "link":"https://digibayelsa.github.io/getverified/verify.html"
    },
    {
    "name":"SirFeez",
    "phone":"08068754Not Verified",
    "image":"1.jpg",
    "location":"Okutukutu",
    "status":"Not Verified",
    "link":"https://digibayelsa.github.io/getverified/verify.html"
    },
    {
    "name":"Big Boys Hair Cut",
    "phone":"08064469Not Verified",
    "image":"3.jpg",
    "location":"Ekeki",
    "status":"Not Verified",
    "link":"https://digibayelsa.github.io/getverified/verify.html"
    },
    {
    "name":"Exclusive Barbing Salon",
    "phone":"080-DIGINot Verified",
    "image":"3.jpg",
    "location":"Kpansia",
    "status":"Not Verified",
    "link":"https://digibayelsa.github.io/getverified/verify.html"
    },
    {
    "name":"Big Ben Barbing Salon",
    "phone":"08068260Not Verified",
    "image":"1.jpg",
    "location":"Opolo",
    "status":"Not Verified",
    "link":"https://digibayelsa.github.io/getverified/verify.html"
    },
    {
    "name":"Soft Touch Barber Shop",
    "phone":"080-DIGINot Verified",
    "image":"2.jpg",
    "location":"Opolo",
    "status":"Not Verified",
    "link":"https://digibayelsa.github.io/getverified/verify.html"
    },
    {
    "name":"Chartan Barbing Salon",
    "phone":"080-DIGINot Verified",
    "image":"2.jpg",
    "location":"Ekeki",
    "status":"Not Verified",
    "link":"https://digibayelsa.github.io/getverified/verify.html"
    },
    {
    "name":"Bills Barbers Shop",
    "phone":"09045471Not Verified",
    "image":"2.jpg",
    "location":"Ekeki",
    "status":"Not Verified",
    "link":"https://digibayelsa.github.io/getverified/verify.html"
    },
    {
    "name":"God'sOwn Barber Salon",
    "phone":"080-DIGINot Verified",
    "image":"1.jpg",
    "location":"Etegwe",
    "status":"Not Verified",
    "link":"https://digibayelsa.github.io/getverified/verify.html"
    }
    
]