[
  {
    "name":"Vita Foam Nig Plc",
    "phone":"08035162-Not Verified",
    "image":"1.jpg",
    "location":"Opolo",
    "Status":"Not Verified"
    },
    {
    "name":"Foam Planet",
    "phone":"080-DIGI-Not Verified",
    "image":"2.jpg",
    "location":"Okutukutu",
    "Status":"Not Verified"
    },
    {
    "name":"Foam Planet",
    "phone":"09012263-Not Verified",
    "image":"1.jpg",
    "location":"Okutukutu",
    "Status":"Not Verified"
    },
    {
    "name":"Vita Foam Nig Plc",
    "phone":"080-DIGI-Not Verified",
    "image":"3.jpg",
    "location":"Amarata",
    "Status":"Status"
    },
    {
    "name":"Gold foam depot",
    "phone":"08137896-Not Verified",
    "image":"3.jpg",
    "location":"Amarata",
    "Status":"Not Verified"
    },
    {
    "name":"Mouka Foam",
    "phone":"080-DIGI-Not Verified",
    "image":"1.jpg",
    "location":"Amarata",
    "Status":"Not Verified"
    },
    {
    "name":"Vita Foam Nig Plc",
    "phone":"00806297-Not Verified",
    "image":"2.jpg",
    "location":"Kpansia",
    "Status":"Not Verified"
    },
    {
    "name":"The Blessed Foam Man",
    "phone":"08035153-Not Verified",
    "image":"2.jpg",
    "location":"Ekeki",
    "Status":"Not Verified"
    },
    {
    "name":"Royal Foam",
    "phone":"080-DIGI-Not Verified",
    "image":"3.jpg",
    "location":"Ekeki",
    "Status":"Not Verified"
    }
    
]