[
  {
    "name":"Mirra Cosmetics and Spas",
    "phone":"08038005-Not Verified",
    "image":"1.jpg",
    "location":"Yenizuegene",
    "Status":"Not Verified"
    },
    {
    "name":"Glozy Cosmetic Shop",
    "phone":"08122560-Not Verified",
    "image":"3.jpg",
    "location":"Okutukutu",
    "Status":"Not Verified"
    },
    {
    "name":"Ebisco's Makeup Studio",
    "phone":"09013328-Not Verified",
    "image":"2.jpg",
    "location":"Etegwe",
    "Status":"Not Verified"
    },
    {
    "name":"Pizzy Cosmetics",
    "phone":"08036388-Not Verified",
    "image":"1.jpg",
    "location":"Yenizuegene",
    "Status":"Not Verified"
    },
    {
    "name":"Juli & More Enterprise",
    "phone":"07038727-Not Verified",
    "image":"1.jpg",
    "location":"Yenizuegene",
    "Status":"Not Verified"
    },
    {
    "name":"TheKays",
    "phone":"09071173-Not Verified",
    "image":"2.jpg",
    "location":"Biogbolo",
    "Status":"Not Verified"
    },
    {
    "name":"B' Skincare and Makeup Studio",
    "phone":"08021175-Not Verified",
    "image":"1.jpg",
    "location":"Biogbolo",
    "Status":"Not Verified"
    },
    {
    "name":"Shimmers Place",
    "phone":"08136295-Not Verified",
    "image":"2.jpg",
    "location":"Biogbolo",
    "Status":"Not Verified"
    },
    {
    "name":"Pedestar",
    "phone":"08039232-Not Verified",
    "image":"3.jpg",
    "location":"Biogbolo",
    "Status":"Not Verified"
    },
    {
    "name":"Tizo craft and glam",
    "phone":"080-DIGI-Not Verified",
    "image":"2.jpg",
    "location":"Opolo",
    "Status":"Not Verified"
    },
    {
    "name":"Ebijas Signature",
    "phone":"08155847-Not Verified",
    "image":"1.jpg",
    "location":"Kpansia",
    "Status":"Not Verified"
    },
    {
    "name":"Samat",
    "phone":"07032434-Not Verified",
    "image":"3.jpg",
    "location":"Kpansia",
    "Status":"Not Verified"
    },
    {
    "name":"Farida Skincare & spa",
    "phone":"07038359-Not Verified",
    "image":"2.jpg",
    "location":"Kpansia",
    "Status":"Not Verified"
    },
    {
    "name":"Lilysglam Organics",
    "phone":"08117488-Not Verified",
    "image":"3.jpg",
    "location":"Kpansia",
    "Status":"Not Verified"
    },
    {
    "name":"Spciy Glam",
    "phone":"08181345-Not Verified",
    "image":"1.jpg",
    "location":"Okutukutu",
    "Status":"Not Verified"
    },
    {
    "name":"Samat",
    "phone":"07032434-Not Verified",
    "image":"3.jpg",
    "location":"Amarata",
    "Status":"Not Verified"
    },
    {
    "name":"Smooth and Easy Life Cosmetics",
    "phone":"08069495-Not Verified",
    "image":"3.jpg",
    "location":"Onopa",
    "Status":"Not Verified"
    },
    {
    "name":"Studio Diamond",
    "phone":"08034311-Not Verified",
    "image":"2.jpg",
    "location":"Biogbolo",
    "Status":"Not Verified"
    },
    {
    "name":"Cozy Hair",
    "phone":"08167223-Not Verified",
    "image":"3.jpg",
    "location":"Biogbolo",
    "Status":"Not Verified"
    },
    {
    "name":"Ogo Best Beauty Centre",
    "phone":"08033723-Not Verified",
    "image":"1.jpg",
    "location":"Yenizuegene",
    "Status":"Not Verified"
    },
    {
    "name":"Princess Hair Cosmetics",
    "phone":"08078119-Not Verified",
    "image":"1.jpg",
    "location":"Yenizuegene",
    "Status":"Not Verified"
    },
    {
    "name":"Cuties Beauty Place",
    "phone":"08142760-Not Verified",
    "image":"2.jpg",
    "location":"Yenizuegene",
    "Status":"Not Verified"
    },
    {
    "name":"Abuchi Beauty",
    "phone":"07060701-Not Verified",
    "image":"3.jpg",
    "location":"Ekeki",
    "Status":"Not Verified"
    },
    {
    "name":"Emirose Empire",
    "phone":"08133677-Not Verified",
    "image":"1.jpg",
    "location":"Ekeki",
    "Status":"Not Verified"
    }
    
]