[
  {
    "name":"Base Furniture",
    "phone":"0803 809 1551",
    "image":"1.jpg",
    "location":"1",
    "Status":"OPOLO"
    },
    {
    "name":"Obi Best Furniture & Upholstry",
    "phone":"080-DIGI-BAY-342",
    "image":"2.jpg",
    "location":"1",
    "Status":"Update in Progress"
    },
    {
    "name":"Ugo Legacy Furniture",
    "phone":"07069119178",
    "image":"2.jpg",
    "location":"1",
    "Status":"Amarata"
    },
    {
    "name":"Topcom Furniture Amarata",
    "phone":"080-DIGI-BAY-342",
    "image":"3.jpg",
    "location":"1",
    "Status":"Update in Progress"
    },
    {
    "name":"Don Royal Furniture Enterprise",
    "phone":"080-DIGI-BAY-342",
    "image":"3.jpg",
    "location":"1",
    "Status":"Amarata"
    },
    {
    "name":"Triple C furniture",
    "phone":"08030426921",
    "image":"2.jpg",
    "location":"1",
    "Status":"Opolo"
    },
    {
    "name":"OC SkyMate Furniture",
    "phone":"08063551910",
    "image":"3.jpg",
    "location":"1",
    "Status":"Update in Progress"
    },
    {
    "name":"Avalanche of Mercy Furniture",
    "phone":"080-DIGI-BAY-342",
    "image":"2.jpg",
    "location":"1",
    "Status":"Opolo"
    },
    {
    "name":"De Tiger Teeth Furniture",
    "phone":"080-DIGI-BAY-342",
    "image":"2.jpg",
    "location":"1",
    "Status":"Opolo"
    },
    {
    "name":"Daniel Best Global Furniture",
    "phone":"080-DIGI-BAY-342",
    "image":"1.jpg",
    "location":"1",
    "Status":"Opolo"
    },
    {
    "name":"World Class Furniture",
    "phone":"07035879180",
    "image":"1.jpg",
    "location":"1",
    "Status":"Opolo"
    },
    {
    "name":"St. Innoccent Furniture",
    "phone":"09068837521",
    "image":"3.jpg",
    "location":"1",
    "Status":"Opolo"
    },
    {
    "name":"Obinaco Global Furnitures",
    "phone":"08164748894",
    "image":"2.jpg",
    "location":"1",
    "Status":"Opolo"
    },
    {
    "name":"Blessed Brothers Furniture",
    "phone":"08164331262",
    "image":"1.jpg",
    "location":"1",
    "Status":"Update in Progress"
    },
    {
    "name":"Uality Base Furniture",
    "phone":"07065087681",
    "image":"3.jpg",
    "location":"1",
    "Status":"Biogbolo"
    },
    {
    "name":"De Great Walter Furniture",
    "phone":"09076934864",
    "image":"1.jpg",
    "location":"1",
    "Status":"Opolo"
    },
    {
    "name":"Aneru Furniture Global Empire",
    "phone":"080-DIGI-BAY-342",
    "image":"2.jpg",
    "location":"1",
    "Status":"Opolo"
    },
    {
    "name":"De Blessed Franco Furnitures",
    "phone":"080-DIGI-BAY-342",
    "image":"3.jpg",
    "location":"1",
    "Status":"Opolo"
    },
    {
    "name":"The Lord's Strength Enterprise",
    "phone":"08067756759",
    "image":"3.jpg",
    "location":"1",
    "Status":"Opolo"
    },
    {
    "name":"De Easy-Way Furniture & Upholstery Home",
    "phone":"08132776295",
    "image":"3.jpg",
    "location":"1",
    "Status":"Update in Progress"
    },
    {
    "name":"Big Brother Bayelsa",
    "phone":"080-DIGI-BAY-342",
    "image":"1.jpg",
    "location":"1",
    "Status":"Opolo"
    },
    {
    "name":"Classic Furniture &  Upholstery Home",
    "phone":"08161126653",
    "image":"2.jpg",
    "location":"1",
    "Status":"Opolo"
    },
    {
    "name":"Pretty Touchhomez",
    "phone":"08064335147",
    "image":"2.jpg",
    "location":"1",
    "Status":"Ekeki"
    },
    {
    "name":"Dontext Furniture",
    "phone":"08037980266",
    "image":"1.jpg",
    "location":"1",
    "Status":"Ekeki"
    },
    {
    "name":"King David and Oluchi Furniture Nig",
    "phone":"08034319865",
    "image":"1.jpg",
    "location":"1",
    "Status":"Ekeki"
    },
    {
    "name":"Chibest Furniture Nig.",
    "phone":"07038226079",
    "image":"3.jpg",
    "location":"1",
    "Status":"Ekeki"
    },
    {
    "name":"Elo- best Furniture",
    "phone":"",
    "image":"1.jpg",
    "location":"1",
    "Status":"Ekeki"
    }
    
]