[
  {
    "name":"Attractivia",
    "phone":"09133839-Not Verified",
    "image":"2.jpg",
    "location":"Yenizue Gene",
    "Status":"Not Verified"
    },
    {
    "name":"Tet Luxury Unisex Salon",
    "phone":"080-DIGI-Not Verified",
    "image":"1.jpg",
    "location":"Okutukutu",
    "Status":"Not Verified"
    },
    {
    "name":"Valerie Unisex Salon",
    "phone":"09011303-Not Verified",
    "image":"1.jpg",
    "location":"Okutukutu",
    "Status":"Not Verified"
    },
    {
    "name":"Bel's Beauty Empire",
    "phone":"08054712-Not Verified",
    "image":"1.jpg",
    "location":"Yenizuegene",
    "Status":"Not Verified"
    },
    {
    "name":"Maccai's Place salon/Beauty Palour",
    "phone":"08161630-Not Verified",
    "image":"1.jpg",
    "location":"Biogbolo",
    "Status":"Not Verified"
    },
    {
    "name":"FJM beauty Salon",
    "phone":"07061027-Not Verified",
    "image":"1.jpg",
    "location":"Opolo",
    "Status":"Not Verified"
    },
    {
    "name":"Adam&Eve Beauty Salon",
    "phone":"080-DIGI-Not Verified",
    "image":"2.jpg",
    "location":"Okutukutu",
    "Status":"Not Verified"
    },
    {
    "name":"Jerome Beauty Salon",
    "phone":"080-DIGI-Not Verified",
    "image":"2.jpg",
    "location":"Okutukutu",
    "Status":"Not Verified"
    },
    {
    "name":"Touch of Excellence Beauty Salon",
    "phone":"07061807-Not Verified",
    "image":"1.jpg",
    "location":"Kpanisa",
    "Status":"Not Verified"
    },
    {
    "name":"PS Paradise Beauty Salon",
    "phone":"08100214-Not Verified",
    "image":"1.jpg",
    "location":"Okaka",
    "Status":"Not Verified"
    },
    {
    "name":"De Blessed Cornerstone Unisex Salon",
    "phone":"09071749-Not Verified",
    "image":"3.jpg",
    "location":"Okaka",
    "Status":"Not Verified"
    },
    {
    "name":"Crownson Unisex Salon",
    "phone":"07030783-Not Verified",
    "image":"1.jpg",
    "location":"Ekeki",
    "Status":"Not Verified"
    },
    {
    "name":"Bella Beauty Salon",
    "phone":"08066649-Not Verified",
    "image":"1.jpg",
    "location":"Amarata",
    "Status":"Not Verified"
    },
    {
    "name":"Sliq Unisex Salon",
    "phone":"09076159-Not Verified",
    "image":"3.jpg",
    "location":"Ekeki",
    "Status":"Not Verified"
    },
    {
    "name":"Tok's Beauty Palace",
    "phone":"080-DIGI-Not Verified",
    "image":"3.jpg",
    "location":"Ekeki",
    "Status":"Not Verified"
    },
    {
    "name":"Sunshine's Beauty Palour",
    "phone":"08130101-Not Verified",
    "image":"2.jpg",
    "location":"Ekeki",
    "Status":"Not Verified"
    },
    {
    "name":"Anointed Fingers",
    "phone":"080-DIGI-Not Verified",
    "image":"2.jpg",
    "location":"Ekeki",
    "Status":"Not Verified"
    }
    
  ]