[
    {
        "name":"Redens",
        "phone":"80333694-Not Verified",
        "image":"3.jpg",
        "location":"Kpansia",
        "Status":"Not Verified"
        },
        {
        "name":"Kd Posh kids",
        "phone":"080-DIGI-Not Verified",
        "image":"3.jpg",
        "location":"Yenizuegene",
        "Status":"Not Verified"
        },
        {
        "name":"Tama Kiddies",
        "phone":"080-DIGI-Not Verified",
        "image":"3.jpg",
        "location":"Update in Progress",
        "Status":"Not Verified"
        },
        {
        "name":"Kids n More alace",
        "phone":"080-DIGI-Not Verified",
        "image":"3.jpg",
        "location":"Opolo",
        "Status":"Not Verified"
        },
        {
        "name":"So-fly Kiddies",
        "phone":"08074827-Not Verified",
        "image":"3.jpg",
        "location":"Ekeki",
        "Status":"Not Verified"
        },
        {
        "name":"Kiddies Street",
        "phone":"08030865-Not Verified",
        "image":"2.jpg",
        "location":"Kpansia",
        "Status":"Not Verified"
        },
        {
        "name":"Kids Gallery",
        "phone":"080-DIGI-Not Verified",
        "image":"2.jpg",
        "location":"Yenizuegene",
        "Status":"Not Verified"
        },
        {
        "name":"Victoria babies",
        "phone":"080-DIGI-Not Verified",
        "image":"3.jpg",
        "location":"Amarata",
        "Status":"Not Verified"
        },
        {
        "name":"Shalom Young world",
        "phone":"080-DIGI-Not Verified",
        "image":"2.jpg",
        "location":"Amarata",
        "Status":"Not Verified"
        },
        {
        "name":"DD's kiddies wears",
        "phone":"09064578-Not Verified",
        "image":"1.jpg",
        "location":"okutukutu",
        "Status":"Not Verified"
        },
        {
        "name":"Naozeal Kiddies",
        "phone":"08063286-Not Verified",
        "image":"3.jpg",
        "location":"Ekeki",
        "Status":"Not Verified"
        },
        {
        "name":"Da-Vic Kiddies &Mum",
        "phone":"08035087-Not Verified",
        "image":"2.jpg",
        "location":"Ekeki",
        "Status":"Not Verified"
        },
        {
        "name":"Prince & Princess Collection Centre",
        "phone":"08034236-Not Verified",
        "image":"2.jpg",
        "location":"Ekeki",
        "Status":"Not Verified"
        },
        {
        "name":"Blessed Babies",
        "phone":"09058074-Not Verified",
        "image":"2.jpg",
        "location":"Amarata",
        "Status":"Not Verified"
        },
        {
        "name":"Egus Kiddies",
        "phone":"08054369-Not Verified",
        "image":"1.jpg",
        "location":"Yenizuegene",
        "Status":"Not Verified"
        },
        {
        "name":"Tamaben kiddies and Mum",
        "phone":"080-DIGI-Not Verified",
        "image":"2.jpg",
        "location":"Ekeki",
        "Status":"Not Verified"
        },
        {
        "name":"Twins Mothercare Products",
        "phone":"08088444-Not Verified",
        "image":"1.jpg",
        "location":"Ekeki",
        "Status":"Not Verified"
        }
        
]