[{
  "name":"DIGIBAYELSA",
  "phone":"080-DIGINot Verified",
  "image":"3.jpg",
  "location":"Opolo",
  "status":"Not Verified",
  "link":"https://digibayelsa.github.io/getverified/verify.html"
  },
  {
  "name":"DIGIBAYELSA",
  "phone":"080-DIGINot Verified",
  "image":"2.jpg",
  "location":"Ekeki",
  "status":"Not Verified",
  "link":"https://digibayelsa.github.io/getverified/verify.html"
  },{
    "name":"Ups Express",
    "phone":"080-DIGINot Verified",
    "image":"1.jpg",
    "location":"Kpansia",
    "status":"Not Verified",
    "link":"https://digibayelsa.github.io/getverified/verify.html"
    },
    {
    "name":"DHL",
    "phone":"080-DIGINot Verified",
    "image":"2.jpg",
    "location":"Kpansia",
    "status":"Not Verified",
    "link":"https://digibayelsa.github.io/getverified/verify.html"
    },
    {
    "name":"Fedex",
    "phone":"080-DIGINot Verified",
    "image":"1.jpg",
    "location":"Ekeki",
    "status":"Not Verified",
    "link":"https://digibayelsa.github.io/getverified/verify.html"
    },
    {
    "name":"Raising Star",
    "phone":"080-DIGINot Verified",
    "image":"1.jpg",
    "location":"Kpansia",
    "status":"Not Verified",
    "link":"https://digibayelsa.github.io/getverified/verify.html"
    },
    {
    "name":"Spitha Logistics",
    "phone":"080-DIGINot Verified",
    "image":"2.jpg",
    "location":"Swali",
    "status":"Not Verified",
    "link":"https://digibayelsa.github.io/getverified/verify.html"
    },
    {
    "name":"God is Good",
    "phone":"080-DIGINot Verified",
    "image":"2.jpg",
    "location":"Kpansia",
    "status":"Not Verified",
    "link":"https://digibayelsa.github.io/getverified/verify.html"
    }
    
]