[{
  "name":"DIGIBAYELSA",
  "phone":"080-DIGINot Verified",
  "image":"3.jpg",
  "location":"Opolo",
  "status":"Not Verified",
  "link":"https://digibayelsa.github.io/getverified/verify.html"
  },
  {
  "name":"DIGIBAYELSA",
  "phone":"080-DIGINot Verified",
  "image":"2.jpg",
  "location":"Ekeki",
  "status":"Not Verified",
  "link":"https://digibayelsa.github.io/getverified/verify.html"
  },{
  "name":"Chirstone Pharmacy",
  "phone":"08032857Not Verified",
  "image":"3.jpg",
  "location":"Yenezue-gene",
  "status":"Not Verified",
  "link":"https://digibayelsa.github.io/getverified/verify.html"
  },
  {
  "name":"Shine-Decol Pharmacy ltd",
  "phone":"080-DIGINot Verified",
  "image":"1.jpg",
  "location":"Yenezue-gene",
  "status":"Not Verified",
  "link":"https://digibayelsa.github.io/getverified/verify.html"
  },
  {
  "name":"Transparent Pharmacy",
  "phone":"08065613Not Verified",
  "image":"1.jpg",
  "location":"Yenezue-gene",
  "status":"Not Verified",
  "link":"https://digibayelsa.github.io/getverified/verify.html"
  },
  {
  "name":"Kenicare Pharmacy",
  "phone":"080-DIGINot Verified",
  "image":"1.jpg",
  "location":"Biogbolo",
  "status":"Not Verified",
  "link":"https://digibayelsa.github.io/getverified/verify.html"
  },
  {
  "name":"Mezico Pharmacy",
  "phone":"08035337Not Verified",
  "image":"1.jpg",
  "location":"Kpansia",
  "status":"Not Verified",
  "link":"https://digibayelsa.github.io/getverified/verify.html"
  },
  {
  "name":"Hilex Pharmacy",
  "phone":"08169668Not Verified",
  "image":"3.jpg",
  "location":"Biogbolo",
  "status":"Not Verified",
  "link":"https://digibayelsa.github.io/getverified/verify.html"
  },
  {
  "name":"Cj Medical (pat)",
  "phone":"08037639Not Verified",
  "image":"1.jpg",
  "location":"Biogbolo",
  "status":"Not Verified",
  "link":"https://digibayelsa.github.io/getverified/verify.html"
  },
  {
  "name":"Philp Medicals",
  "phone":"07030714Not Verified",
  "image":"1.jpg",
  "location":"Ekeki",
  "status":"Not Verified",
  "link":"https://digibayelsa.github.io/getverified/verify.html"
  },
  {
  "name":"All saints Medical",
  "phone":"080-DIGINot Verified",
  "image":"2.jpg",
  "location":"Okaka",
  "status":"Not Verified",
  "link":"https://digibayelsa.github.io/getverified/verify.html"
  },
  {
  "name":"Skypat ltd",
  "phone":"080-DIGINot Verified",
  "image":"3.jpg",
  "location":"Amarata",
  "status":"Not Verified",
  "link":"https://digibayelsa.github.io/getverified/verify.html"
  },
  {
  "name":"Hilex Pharmacy",
  "phone":"080-DIGINot Verified",
  "image":"2.jpg",
  "location":"Onopa",
  "status":"Not Verified",
  "link":"https://digibayelsa.github.io/getverified/verify.html"
  },
  {
  "name":"Osinachi Medical Store",
  "phone":"080-DIGINot Verified",
  "image":"1.jpg",
  "location":"Okaka",
  "status":"Not Verified",
  "link":"https://digibayelsa.github.io/getverified/verify.html"
  },
  {
  "name":"Oxford Medical",
  "phone":"080-DIGINot Verified",
  "image":"2.jpg",
  "location":"Yenezue-gene",
  "status":"Not Verified",
  "link":"https://digibayelsa.github.io/getverified/verify.html"
  },
  {
  "name":"Emmalek Medicine Shop",
  "phone":"08080879Not Verified",
  "image":"1.jpg",
  "location":"Etegwe",
  "status":"Not Verified",
  "link":"https://digibayelsa.github.io/getverified/verify.html"
  },
  {
  "name":"Justine Pharmacy",
  "phone":"080-DIGINot Verified",
  "image":"2.jpg",
  "location":"Etegwe",
  "status":"Not Verified",
  "link":"https://digibayelsa.github.io/getverified/verify.html"
  },
  {
  "name":"UC Medicine Store",
  "phone":"07033656Not Verified",
  "image":"3.jpg",
  "location":"Okutukutu",
  "status":"Not Verified",
  "link":"https://digibayelsa.github.io/getverified/verify.html"
  },
  {
  "name":"Davic Trust Medicals",
  "phone":"080-DIGINot Verified",
  "image":"3.jpg",
  "location":"Okutukutu",
  "status":"Not Verified",
  "link":"https://digibayelsa.github.io/getverified/verify.html"
  },
  {
  "name":"Figland Pharmacy",
  "phone":"08135026Not Verified",
  "image":"3.jpg",
  "location":"Okutukutu",
  "status":"Not Verified",
  "link":"https://digibayelsa.github.io/getverified/verify.html"
  },
  {
  "name":"Hope in God Medicine store",
  "phone":"08023548Not Verified",
  "image":"1.jpg",
  "location":"Opolo",
  "status":"Not Verified",
  "link":"https://digibayelsa.github.io/getverified/verify.html"
  },
  {
  "name":"God'sgift Medicals",
  "phone":"08063925Not Verified",
  "image":"1.jpg",
  "location":"Opolo",
  "status":"Not Verified",
  "link":"https://digibayelsa.github.io/getverified/verify.html"
  },
  {
  "name":"Stanley Medical Store",
  "phone":"07068775Not Verified",
  "image":"2.jpg",
  "location":"Opolo",
  "status":"Not Verified",
  "link":"https://digibayelsa.github.io/getverified/verify.html"
  },
  {
  "name":"Denson Pharmacy",
  "phone":"080-DIGINot Verified",
  "image":"3.jpg",
  "location":"Opolo",
  "status":"Not Verified",
  "link":"https://digibayelsa.github.io/getverified/verify.html"
  },
  {
  "name":"Benchucks pharmacy",
  "phone":"080-DIGINot Verified",
  "image":"2.jpg",
  "location":"Opolo",
  "status":"Not Verified",
  "link":"https://digibayelsa.github.io/getverified/verify.html"
  },
  {
  "name":"Pia Medical Shop",
  "phone":"080-DIGINot Verified",
  "image":"3.jpg",
  "location":"Biogbolo",
  "status":"Not Verified",
  "link":"https://digibayelsa.github.io/getverified/verify.html"
  },
  {
  "name":"Krismol Medical",
  "phone":"08038992Not Verified",
  "image":"2.jpg",
  "location":"Biogbolo",
  "status":"Not Verified",
  "link":"https://digibayelsa.github.io/getverified/verify.html"
  },
  {
  "name":"Allison Medicals",
  "phone":"07032776Not Verified",
  "image":"1.jpg",
  "location":"Kpansia",
  "status":"Not Verified",
  "link":"https://digibayelsa.github.io/getverified/verify.html"
  },
  {
  "name":"Zurich Medicals",
  "phone":"08062706Not Verified",
  "image":"3.jpg",
  "location":"Yenezue-gene",
  "status":"Not Verified",
  "link":"https://digibayelsa.github.io/getverified/verify.html"
  },
  {
  "name":"Karibriggs",
  "phone":"080-DIGINot Verified",
  "image":"3.jpg",
  "location":"Okutukutu",
  "status":"Not Verified",
  "link":"https://digibayelsa.github.io/getverified/verify.html"
  },
  {
  "name":"Our father Medical",
  "phone":"08103756Not Verified",
  "image":"1.jpg",
  "location":"Okutukutu",
  "status":"Not Verified",
  "link":"https://digibayelsa.github.io/getverified/verify.html"
  },
  {
  "name":"Maristan Pharmacy ltd",
  "phone":"09031258Not Verified",
  "image":"2.jpg",
  "location":"Etegwe",
  "status":"Not Verified",
  "link":"https://digibayelsa.github.io/getverified/verify.html"
  },
  {
  "name":"Big Joerald Pharmacy ltd",
  "phone":"08138697Not Verified",
  "image":"2.jpg",
  "location":"Ekeki",
  "status":"Not Verified",
  "link":"https://digibayelsa.github.io/getverified/verify.html"
  },
  {
  "name":"V.I.K Pharmacy",
  "phone":"080-DIGINot Verified",
  "image":"1.jpg",
  "location":"Ekeki",
  "status":"Not Verified",
  "link":"https://digibayelsa.github.io/getverified/verify.html"
  },
  {
  "name":"Durem Pharmacy ltd",
  "phone":"08036934Not Verified",
  "image":"1.jpg",
  "location":"Amarata",
  "status":"Not Verified",
  "link":"https://digibayelsa.github.io/getverified/verify.html"
  },
  {
  "name":"Index Meical",
  "phone":"08038578Not Verified",
  "image":"3.jpg",
  "location":"Amarata",
  "status":"Not Verified",
  "link":"https://digibayelsa.github.io/getverified/verify.html"
  },
  {
  "name":"Kinchez Pharmacy ltd",
  "phone":"080-DIGINot Verified",
  "image":"3.jpg",
  "location":"Ekeki",
  "status":"Not Verified",
  "link":"https://digibayelsa.github.io/getverified/verify.html"
  },
  {
  "name":"Honesty c&G Pharmacy ltd",
  "phone":"07031004Not Verified",
  "image":"2.jpg",
  "location":"Ekeki",
  "status":"Not Verified",
  "link":"https://digibayelsa.github.io/getverified/verify.html"
  },
  {
  "name":"Layefa Pharmacy",
  "phone":"080-DIGINot Verified",
  "image":"2.jpg",
  "location":"Ekeki",
  "status":"Not Verified",
  "link":"https://digibayelsa.github.io/getverified/verify.html"
  },
  {
  "name":"Gadol Pharmacy",
  "phone":"08037296Not Verified",
  "image":"3.jpg",
  "location":"Kpansia",
  "status":"Not Verified",
  "link":"https://digibayelsa.github.io/getverified/verify.html"
  },
  {
  "name":"Telex Pharmacy",
  "phone":"080-DIGINot Verified",
  "image":"1.jpg",
  "location":"Yenezue-gene",
  "status":"Not Verified",
  "link":"https://digibayelsa.github.io/getverified/verify.html"
  },
  {
  "name":"De Don Pa Medicine Shop",
  "phone":"080-DIGINot Verified",
  "image":"1.jpg",
  "location":"Ekeki",
  "status":"Not Verified",
  "link":"https://digibayelsa.github.io/getverified/verify.html"
  },
  {
  "name":"Agono Fav Pharmacy",
  "phone":"080-DIGINot Verified",
  "image":"3.jpg",
  "location":"Kpansia",
  "status":"Not Verified",
  "link":"https://digibayelsa.github.io/getverified/verify.html"
  },
  {
  "name":"Omega Medicine Store",
  "phone":"080-DIGINot Verified",
  "image":"3.jpg",
  "location":"Opolo",
  "status":"Not Verified",
  "link":"https://digibayelsa.github.io/getverified/verify.html"
  },
  {
  "name":"St.Cuzi Pharmacy Ltd",
  "phone":"08035983Not Verified",
  "image":"3.jpg",
  "location":"Ekeki",
  "status":"Not Verified",
  "link":"https://digibayelsa.github.io/getverified/verify.html"
  },
  {
  "name":"Ngozi Medical Store",
  "phone":"07036278Not Verified",
  "image":"3.jpg",
  "location":"Okaka",
  "status":"Not Verified",
  "link":"https://digibayelsa.github.io/getverified/verify.html"
  },
  {
  "name":"Collins Medical Shop",
  "phone":"080-DIGINot Verified",
  "image":"3.jpg",
  "location":"Okaka",
  "status":"Not Verified",
  "link":"https://digibayelsa.github.io/getverified/verify.html"
  },
  {
  "name":"De Simple Pat Medicine Store",
  "phone":"080-DIGINot Verified",
  "image":"3.jpg",
  "location":"Etegwe",
  "status":"Not Verified",
  "link":"https://digibayelsa.github.io/getverified/verify.html"
  },
  {
  "name":"Ebide Pharmacy",
  "phone":"080-DIGINot Verified",
  "image":"2.jpg",
  "location":"Etegwe",
  "status":"Not Verified",
  "link":"https://digibayelsa.github.io/getverified/verify.html"
  }
  
]