[{
    "name":"DIGIBAYELSA",
    "phone":"080-DIGINot Verified",
    "image":"3.jpg",
    "location":"Opolo",
    "status":"Not Verified",
    "link":"https://digibayelsa.github.io/getverified/verify.html"
    },
    {
    "name":"DIGIBAYELSA",
    "phone":"080-DIGINot Verified",
    "image":"2.jpg",
    "location":"Ekeki",
    "status":"Not Verified",
    "link":"https://digibayelsa.github.io/getverified/verify.html"
    },{
        "name":"Foto Express",
        "phone":"Not Verified",
        "image":"1.jpg",
        "location":"Okutukutu",
        "status":"Not Verified",
        "link":"https://digibayelsa.github.io/getverified/verify.html"
        },
        {
        "name":"Studio 10",
        "phone":"07069548Not Verified",
        "image":"3.jpg",
        "location":"Opolo",
        "status":"Not Verified",
        "link":"https://digibayelsa.github.io/getverified/verify.html"
        },
        {
        "name":"Choices",
        "phone":"Not Verified",
        "image":"3.jpg",
        "location":"Kpansia",
        "status":"Not Verified",
        "link":"https://digibayelsa.github.io/getverified/verify.html"
        },
        {
        "name":"Mi-Gab Studios",
        "phone":"07045880Not Verified",
        "image":"3.jpg",
        "location":"Ekeki",
        "status":"Not Verified",
        "link":"https://digibayelsa.github.io/getverified/verify.html"
        },
        {
        "name":"Global Photos Technology",
        "phone":"08032725Not Verified",
        "image":"3.jpg",
        "location":"Yenizuegene",
        "status":"Not Verified",
        "link":"https://digibayelsa.github.io/getverified/verify.html"
        },
        {
        "name":"JnrAdie Studios",
        "phone":"07069999Not Verified",
        "image":"3.jpg",
        "location":"Ekeki",
        "status":"Not Verified",
        "link":"https://digibayelsa.github.io/getverified/verify.html"
        },
        {
        "name":"Pflamez Photo Studio",
        "phone":"08091102Not Verified",
        "image":"3.jpg",
        "location":"Ekeki",
        "status":"Not Verified",
        "link":"https://digibayelsa.github.io/getverified/verify.html"
        },
        {
        "name":"Rukkiez Memories Photography Studio",
        "phone":"09114018354",
        "image":"1.jpg",
        "location":"Okutukutu",
        "status":"Not Verified",
        "link":"https://digibayelsa.github.io/rukkiezmemories/"
        }
        
]