[
  {
    "name" : " DIGI-STORE",
    "phone" : "080-DIGI-BAY-342",
    "image" : "2.jpg",
    "location" : "Update in Progress",
 "Status":"Not Verified"
  },
  {
    "name" : " DIGI-STORE",
    "phone" : "080-DIGI-BAY-342",
    "image" : "2.jpg",
    "location" : "Update in Progress",
      "Status":"Not Verified"
  },{
    "name":"Transformation Digital Printing Press",
    "phone":"080-DIGINot Verified",
    "image":"3.jpg",
    "location":"Okutukutu",
    "status":"Not Verified",
    "link":"https://digibayelsa.github.io/getverified/verify.html"
    },
    {
    "name":"Jags Grafik",
    "phone":"080-DIGINot Verified",
    "image":"2.jpg",
    "location":"Okutukutu",
    "status":"Not Verified",
    "link":"https://digibayelsa.github.io/getverified/verify.html"
    },
    {
    "name":"Spring Printing Co",
    "phone":"080-DIGINot Verified",
    "image":"3.jpg",
    "location":"Yenizuegene",
    "status":"Not Verified",
    "link":"https://digibayelsa.github.io/getverified/verify.html"
    },
    {
    "name":"God's Own Printing Technology",
    "phone":"080-DIGINot Verified",
    "image":"3.jpg",
    "location":"Yenizuegene",
    "status":"Not Verified",
    "link":"https://digibayelsa.github.io/getverified/verify.html"
    },
    {
    "name":"Fresh Ideas Printing Press",
    "phone":"080-DIGINot Verified",
    "image":"3.jpg",
    "location":"Yenizuegene",
    "status":"Not Verified",
    "link":"https://digibayelsa.github.io/getverified/verify.html"
    },
    {
    "name":"Nao's Printing Press & Stationary",
    "phone":"080-DIGINot Verified",
    "image":"2.jpg",
    "location":"Kpansia",
    "status":"Not Verified",
    "link":"https://digibayelsa.github.io/getverified/verify.html"
    },
    {
    "name":"KelRich Technologies",
    "phone":"080-DIGINot Verified",
    "image":"3.jpg",
    "location":"Etegwe",
    "status":"Not Verified",
    "link":"https://digibayelsa.github.io/getverified/verify.html"
    },
    {
    "name":"DI Sav & Flex Printing",
    "phone":"080-DIGINot Verified",
    "image":"3.jpg",
    "location":"Opolo",
    "status":"Not Verified",
    "link":"https://digibayelsa.github.io/getverified/verify.html"
    }
    
]