[{
  "name":"DIGIBAYELSA",
  "phone":"080-DIGINot Verified",
  "image":"3.jpg",
  "location":"Opolo",
  "status":"Not Verified",
  "link":"https://digibayelsa.github.io/getverified/verify.html"
  },
  {
  "name":"DIGIBAYELSA",
  "phone":"080-DIGINot Verified",
  "image":"2.jpg",
  "location":"Ekeki",
  "status":"Not Verified",
  "link":"https://digibayelsa.github.io/getverified/verify.html"
  },
  {
    "name":"Unique Resturant",
    "phone":"07046406Not Verified",
    "image":"2.jpg",
    "location":"Etegwe",
    "status":"Not Verified",
    "link":"https://digibayelsa.github.io/getverified/verify.html"
    },
    {
    "name":"Dish Caf√©",
    "phone":"08033164Not Verified",
    "image":"3.jpg",
    "location":"Okutukutu",
    "status":"Not Verified",
    "link":"https://digibayelsa.github.io/getverified/verify.html"
    },
    {
    "name":"Blessed Kitchen",
    "phone":"080-DIGINot Verified",
    "image":"2.jpg",
    "location":"Biogbolo",
    "status":"Not Verified",
    "link":"https://digibayelsa.github.io/getverified/verify.html"
    },
    {
    "name":"Don Bobo Bar",
    "phone":"08022946Not Verified",
    "image":"3.jpg",
    "location":"Amarata",
    "status":"Not Verified",
    "link":"https://digibayelsa.github.io/getverified/verify.html"
    },
    {
    "name":"Calabar Kitchen",
    "phone":"07064713Not Verified",
    "image":"2.jpg",
    "location":"Onopa",
    "status":"Not Verified",
    "link":"https://digibayelsa.github.io/getverified/verify.html"
    },
    {
    "name":"Lyon's Kitchen",
    "phone":"08108080Not Verified",
    "image":"1.jpg",
    "location":"Amarata",
    "status":"Not Verified",
    "link":"https://digibayelsa.github.io/getverified/verify.html"
    },
    {
    "name":"Success Kitchen",
    "phone":"08036251Not Verified",
    "image":"3.jpg",
    "location":"Opolo",
    "status":"Not Verified",
    "link":"https://digibayelsa.github.io/getverified/verify.html"
    },
    {
    "name":"Comfort Kitchen",
    "phone":"080-DIGINot Verified",
    "image":"2.jpg",
    "location":"Yeniuegene",
    "status":"Not Verified",
    "link":"https://digibayelsa.github.io/getverified/verify.html"
    },
    {
    "name":"Market Square",
    "phone":"080-DIGINot Verified",
    "image":"1.jpg",
    "location":"Opolo",
    "status":"Not Verified",
    "link":"https://digibayelsa.github.io/getverified/verify.html"
    },
    {
    "name":"Blossom Food and Styles",
    "phone":"080-DIGINot Verified",
    "image":"1.jpg",
    "location":"Kpansia",
    "status":"Not Verified",
    "link":"https://digibayelsa.github.io/getverified/verify.html"
    },
    {
    "name":"Rehoboth Deli's",
    "phone":"08050306Not Verified",
    "image":"2.jpg",
    "location":"Kpansia",
    "status":"Not Verified",
    "link":"https://digibayelsa.github.io/getverified/verify.html"
    }
    
]