[{
    "name":"DIGIBAYELSA",
    "phone":"080-DIGINot Verified",
    "image":"3.jpg",
    "location":"Opolo",
    "status":"Not Verified",
    "link":"https://digibayelsa.github.io/getverified/verify.html"
    },
    {
    "name":"DIGIBAYELSA",
    "phone":"080-DIGINot Verified",
    "image":"2.jpg",
    "location":"Ekeki",
    "status":"Not Verified",
    "link":"https://digibayelsa.github.io/getverified/verify.html"
    },{
    "name":"Lady M fashion Home",
    "phone":"08037927Not Verified",
    "image":"3.jpg",
    "location":"Yenizue Gene",
    "status":"Not Verified",
    "link":"https://digibayelsa.github.io/getverified/verify.html"
    },
    {
    "name":"Vicluchis integrated Enterprise",
    "phone":"08032703Not Verified",
    "image":"1.jpg",
    "location":"Yenizue Gene",
    "status":"Not Verified",
    "link":"https://digibayelsa.github.io/getverified/verify.html"
    },
    {
    "name":"NG Ebulove Global",
    "phone":"08105872Not Verified",
    "image":"3.jpg",
    "location":"Yenizue Gene",
    "status":"Not Verified",
    "link":"https://digibayelsa.github.io/getverified/verify.html"
    },
    {
    "name":"Mizpah's Stitches",
    "phone":"080-DIGINot Verified",
    "image":"2.jpg",
    "location":"Okutukutu",
    "status":"Not Verified",
    "link":"https://digibayelsa.github.io/getverified/verify.html"
    },
    {
    "name":"Soso Fabrics",
    "phone":"08066517Not Verified",
    "image":"2.jpg",
    "location":"Amarata",
    "status":"Not Verified",
    "link":"https://digibayelsa.github.io/getverified/verify.html"
    },
    {
    "name":"Stelly Fashion Services",
    "phone":"07034708Not Verified",
    "image":"3.jpg",
    "location":"Amarata",
    "status":"Not Verified",
    "link":"https://digibayelsa.github.io/getverified/verify.html"
    },
    {
    "name":"Gili Fabric Design",
    "phone":"09067869Not Verified",
    "image":"1.jpg",
    "location":"Amarata",
    "status":"Not Verified",
    "link":"https://digibayelsa.github.io/getverified/verify.html"
    },
    {
    "name":"De Top Senator Material",
    "phone":"08068788Not Verified",
    "image":"3.jpg",
    "location":"Onopa",
    "status":"Not Verified",
    "link":"https://digibayelsa.github.io/getverified/verify.html"
    },
    {
    "name":"De Chizzy Tailoring",
    "phone":"08067114Not Verified",
    "image":"2.jpg",
    "location":"Yenizue Gene",
    "status":"Not Verified",
    "link":"https://digibayelsa.github.io/getverified/verify.html"
    },
    {
    "name":"Dan Textiles",
    "phone":"07032622Not Verified",
    "image":"1.jpg",
    "location":"Yenizue Gene",
    "status":"Not Verified",
    "link":"https://digibayelsa.github.io/getverified/verify.html"
    },
    {
    "name":"For U",
    "phone":"08061602Not Verified",
    "image":"3.jpg",
    "location":"Yenizue Gene",
    "status":"Not Verified",
    "link":"https://digibayelsa.github.io/getverified/verify.html"
    },
    {
    "name":"Ebikarnet Designs",
    "phone":"08061605Not Verified",
    "image":"2.jpg",
    "location":"Yenizue Gene",
    "status":"Not Verified",
    "link":"https://digibayelsa.github.io/getverified/verify.html"
    },
    {
    "name":"The Tailor's Shop",
    "phone":"080-DIGINot Verified",
    "image":"3.jpg",
    "location":"Ekeki",
    "status":"Not Verified",
    "link":"https://digibayelsa.github.io/getverified/verify.html"
    },
    {
    "name":"Confi Stitches",
    "phone":"080-DIGINot Verified",
    "image":"1.jpg",
    "location":"Opolo",
    "status":"Not Verified",
    "link":"https://digibayelsa.github.io/getverified/verify.html"
    },
    {
    "name":"Elvida Clothing",
    "phone":"08165272Not Verified",
    "image":"3.jpg",
    "location":"Ekeki",
    "status":"Not Verified",
    "link":"https://digibayelsa.github.io/getverified/verify.html"
    },
    {
    "name":"Mummy P Tailioring Shop",
    "phone":"08062567Not Verified",
    "image":"3.jpg",
    "location":"Ekeki",
    "status":"Not Verified",
    "link":"https://digibayelsa.github.io/getverified/verify.html"
    }
       
]