[{
  "name":"DIGIBAYELSA",
  "phone":"080-DIGINot Verified",
  "image":"3.jpg",
  "location":"Opolo",
  "status":"Not Verified",
  "link":"https://digibayelsa.github.io/getverified/verify.html"
  },
  {
  "name":"DIGIBAYELSA",
  "phone":"080-DIGINot Verified",
  "image":"2.jpg",
  "location":"Ekeki",
  "status":"Not Verified",
  "link":"https://digibayelsa.github.io/getverified/verify.html"
  },{
  "name":"FY stores",
  "phone":"080-DIGINot Verified",
  "image":"3.jpg",
  "location":"Opolo",
  "status":"Not Verified",
  "link":"https://digibayelsa.github.io/getverified/verify.html"
  },
  {
  "name":"Excella Wine Empire",
  "phone":"08135378Not Verified",
  "image":"2.jpg",
  "location":"Kpansia",
  "status":"Not Verified",
  "link":"https://digibayelsa.github.io/getverified/verify.html"
  },
  {
  "name":"All 4 One Super Wine and Gift",
  "phone":"08033612Not Verified",
  "image":"1.jpg",
  "location":"Kpansia",
  "status":"Not Verified",
  "link":"https://digibayelsa.github.io/getverified/verify.html"
  },
  {
  "name":"Tajad Drinks",
  "phone":"080-DIGINot Verified",
  "image":"3.jpg",
  "location":"Ekeki",
  "status":"Not Verified",
  "link":"https://digibayelsa.github.io/getverified/verify.html"
  },
  {
  "name":"Olivia's Concept",
  "phone":"08032651Not Verified",
  "image":"3.jpg",
  "location":"Amarata",
  "status":"Not Verified",
  "link":"https://digibayelsa.github.io/getverified/verify.html"
  },
  {
  "name":"Grace Drinks and Water",
  "phone":"080-DIGINot Verified",
  "image":"3.jpg",
  "location":"Amarata",
  "status":"Not Verified",
  "link":"https://digibayelsa.github.io/getverified/verify.html"
  },
  {
  "name":"Wine Emporium",
  "phone":"080-DIGINot Verified",
  "image":"2.jpg",
  "location":"Opolo",
  "status":"Not Verified",
  "link":"https://digibayelsa.github.io/getverified/verify.html"
  },
  {
  "name":"Assorted Drink Depot",
  "phone":"08063824Not Verified",
  "image":"2.jpg",
  "location":"Opolo",
  "status":"Not Verified",
  "link":"https://digibayelsa.github.io/getverified/verify.html"
  },
  {
  "name":"Keniye Drinks Depot",
  "phone":"08143598Not Verified",
  "image":"3.jpg",
  "location":"Biogbolo",
  "status":"Not Verified",
  "link":"https://digibayelsa.github.io/getverified/verify.html"
  },
  {
  "name":"Chinwe'z place",
  "phone":"08037031Not Verified",
  "image":"1.jpg",
  "location":"Biogbolo",
  "status":"Not Verified",
  "link":"https://digibayelsa.github.io/getverified/verify.html"
  },
  {
  "name":"King's Global Concept",
  "phone":"07035789Not Verified",
  "image":"1.jpg",
  "location":"Yenizuegene",
  "status":"Not Verified",
  "link":"https://digibayelsa.github.io/getverified/verify.html"
  },
  {
  "name":"Dew",
  "phone":"080-DIGINot Verified",
  "image":"3.jpg",
  "location":"Ekeki",
  "status":"Not Verified",
  "link":"https://digibayelsa.github.io/getverified/verify.html"
  },
  {
  "name":"Saint Zoe Drink and Wine",
  "phone":"09079913Not Verified",
  "image":"3.jpg",
  "location":"Ekeki",
  "status":"Not Verified",
  "link":"https://digibayelsa.github.io/getverified/verify.html"
  },
  {
  "name":"Dominion Classic Wine Shop",
  "phone":"080-DIGINot Verified",
  "image":"1.jpg",
  "location":"Ekeki",
  "status":"Not Verified",
  "link":"https://digibayelsa.github.io/getverified/verify.html"
  }
  
]